[
  {
    "id": 1,
    "name": "Aubergine",
    "address": "Linnégatan 38, 114 47 Stockholm",
    "phone": "08-6600204",
    "openHours": "mån-tis 11.30–23.00, ons-tor 11.30–00.00, fre 11.30–01.00, lör 17.00–01.00, sön stängt",
    "note": "Inget riktigt skötbord, men bra yta för blöjbyte.",
    "website": "http://aubergine.se/",
    "latitude": 59.3366,
    "longitude": 18.082
  },
  {
    "id": 2,
    "name": "Ciao Ciao Grande",
    "address": "Storgatan 11, 114 44 Stockholm",
    "phone": "08-6676420",
    "openHours": "mån-tor 11.00-22.00, fre 11.00-22.30,\\nlör 12.00-22.30, sön 12.00-22.00",
    "note": "",
    "website": "http://www.ciaociaogrande.com/",
    "latitude": 59.33548,
    "longitude": 18.08171
  },
  {
    "id": 3,
    "name": "Etnografiska Museet",
    "address": "Djurgårdsbrunnsvägen 34, 115 27 Stockholm",
    "phone": "010-4561200",
    "openHours": "mån stängt, tis-sön 11-17, ons 11-20",
    "note": "",
    "website": "http://www.varldskulturmuseerna.se/etnografiskamuseet/",
    "latitude": 59.33285,
    "longitude": 18.12052
  },
  {
    "id": 4,
    "name": "Fältöversten",
    "address": "Karlaplan 13, 115 20 Stockholm",
    "phone": "08-6963031",
    "openHours": "mån-fre 10-19, lör 10-17, sön 11-17",
    "note": "",
    "website": "http://faltoversten.se/",
    "latitude": 59.33889,
    "longitude": 18.09099
  },
  {
    "id": 5,
    "name": "Grodan",
    "address": "Grevturegatan 16, 114 46 Stockholm",
    "phone": "08-6796100",
    "openHours": "mån-tor 07.30-00.00, fre 07.30-01.00, lör 12.00-01.00, sön 12.00-22.00",
    "note": "",
    "website": "http://www.grodan.se/",
    "latitude": 59.33598,
    "longitude": 18.07593
  },
  {
    "id": 6,
    "name": "Jamie's Italian",
    "address": "Humlegårdsgatan 23, 114 46 Stockholm",
    "phone": "08-51734020",
    "openHours": "mån-fre 11.30–22.00, lör-sön\\n12–22.00",
    "note": "",
    "website": "https://www.jamieoliver.com/italian/sweden/",
    "latitude": 59.33709,
    "longitude": 18.07287
  }
]
