[
	{
		"name": "Aubergine",
		"address": "Linnégatan 38, 114 47 Stockholm",
		"phone": "08-6600204",
		"openHours": "mån-tis 11.30–23.00, ons-tor 11.30–00.00, fre 11.30–01.00, lör 17.00–01.00, sön stängt",
		"note": "Inget riktigt skötbord, men bra yta för blöjbyte.",
		"website": "http://aubergine.se/",
		"latitude": 59.3366,
		"longitude": 18.082
	},
	{
		"name": "Ciao Ciao Grande",
		"address": "Storgatan 11, 114 44 Stockholm",
		"phone": "08-6676420",
		"openHours": "mån-tor 11.00-22.00, fre 11.00-22.30,\\nlör 12.00-22.30, sön 12.00-22.00",
		"note": "Har skötbord",
		"website": "http://www.ciaociaogrande.com/",
		"latitude": 59.33548,
		"longitude": 18.08171
	},
	{
		"name": "Etnografiska Museet",
		"address": "Djurgårdsbrunnsvägen 34, 115 27 Stockholm",
		"phone": "010-4561200",
		"openHours": "mån stängt, tis-sön 11-17, ons 11-20",
		"note": "Har skötbord",
		"website": "http://www.varldskulturmuseerna.se/etnografiskamuseet/",
		"latitude": 59.33285,
		"longitude": 18.12052
	},
	{
		"name": "Fältöversten",
		"address": "Karlaplan 13, 115 20 Stockholm",
		"phone": "08-6963031",
		"openHours": "mån-fre 10-19, lör 10-17, sön 11-17",
		"note": "Har skötbord",
		"website": "http://faltoversten.se/",
		"latitude": 59.33889,
		"longitude": 18.09099
	},
	{
		"name": "Grodan",
		"address": "Grevturegatan 16, 114 46 Stockholm",
		"phone": "08-6796100",
		"openHours": "mån-tor 07.30-00.00, fre 07.30-01.00, lör 12.00-01.00, sön 12.00-22.00",
		"note": "Har skötbord",
		"website": "http://www.grodan.se/",
		"latitude": 59.33598,
		"longitude": 18.07593
	},
	{
		"name": "Jamie's Italian",
		"address": "Humlegårdsgatan 23, 114 46 Stockholm",
		"phone": "08-51734020",
		"openHours": "mån-fre 11.30–22.00, lör-sön\\n12–22.00",
		"note": "Har skötbord",
		"website": "https://www.jamieoliver.com/italian/sweden/",
		"latitude": 59.33709,
		"longitude": 18.07287
	},
	{
		"name": "Karla café",
		"address": "Karlavägen 71, 114 49 Stockholm",
		"phone": "08-6607473",
		"openHours": "mån-fre 7.30-20.00, lör-sön 10.00-19.00",
		"note": "Har skötbord",
		"website": "http://karlacafe.se/",
		"latitude": 59.33933,
		"longitude": 18.08304
	},
	{
		"name": "Ling Long",
		"address": "Riddargatan 6, 114 35 Stockholm",
		"phone": "08-54503953",
		"openHours": "mån-tis 07-00, ons-fre 07-01, lör 16-01, sön 16-00",
		"note": "Har skötbord",
		"website": "http://www.ling-long.se/",
		"latitude": 59.33472,
		"longitude": 18.0751
	},
	{
		"name": "Mornington",
		"address": "Nybrogatan 53, 114 40 Stockholm",
		"phone": "08-50733033",
		"openHours": "se hemsida",
		"note": "Har skötbord",
		"website": "http://www.mornington.se/Mornington---Stockholm---SE/Uppt%C3%A4ck-hotellet/Restaurangen.aspx",
		"latitude": 59.33787,
		"longitude": 18.07964
	},
	{
		"name": "Sturehof",
		"address": "Sturegallerian 42, 114 46 Stockholm",
		"phone": "08-4405730",
		"openHours": "mån-fre 11-02, lör 11-02,\\nsön och helgdag 11-02",
		"note": "Har skötbord",
		"website": "http://www.sturehof.com/",
		"latitude": 59.33625,
		"longitude": 18.07269
	},
	{
		"name": "Taverna Brillo",
		"address": "Sturegatan 6, 114 35 Stockholm",
		"phone": "08-51977800",
		"openHours": "mån-tis 07–00, ons-lör 07–02, sön 09–00",
		"note": "Har skötbord",
		"website": "http://www.tavernabrillo.se/",
		"latitude": 59.33625,
		"longitude": 18.07269
	},
	{
		"name": "TGI Fridays Stureplan",
		"address": "Birgerjarlsgatan 16, 114 34 Stockholm",
		"phone": "08-6113131",
		"openHours": "mån-tor 11.30-00.00, fre 11.30-02.00, lör 12.00-02.00, sön 12.00-00.00",
		"note": "Har skötbord",
		"website": "https://fridays.se/restaurant/stureplan/",
		"latitude": 59.33506,
		"longitude": 18.07419
	},
	{
		"name": "Blå porten",
		"address": "Djurgårdsvägen 64, 115 21 Stockholm",
		"phone": "08-663 87 59",
		"openHours": "mån-sön 11-20",
		"note": "Har skötbord",
		"website": "http://www.blaporten.com/",
		"latitude": 59.32536,
		"longitude": 18.09658
	},
	{
		"name": "Helin & Voltaire",
		"address": "Rosendalsvägen 14, 115 21 Stockholm",
		"phone": "08-6645108",
		"openHours": "mån-lör 9-17 sön 10-17",
		"note": "Har skötbord",
		"website": "http://www.helinvoltaire.com/",
		"latitude": 59.32859,
		"longitude": 18.10253
	},
	{
		"name": "Junibacken",
		"address": "Galärvarvsvägen 8, 115 21 Stockholm",
		"phone": "08-587 230 00",
		"openHours": "mån stängt, tis-sön 10-17",
		"note": "Har skötbord",
		"website": "http://www.junibacken.se/",
		"latitude": 59.32967,
		"longitude": 18.0897
	},
	{
		"name": "Källhagen",
		"address": "Djurgårdsbrunnsvägen 10, 115 27 Stockholm",
		"phone": "08-6650300",
		"openHours": "se hemsida",
		"note": "Har skötbord",
		"website": "http://kallhagen.se/",
		"latitude": 59.33306,
		"longitude": 18.11125
	},
	{
		"name": "Prins Eugens Waldemarsudde",
		"address": "Prins Eugens Väg 6, 115 21 Stockholm",
		"phone": "08-545 837 00",
		"openHours": "tis-sön kl. 11 – 17, tor kvällsöppet till kl. 20, mån stängt",
		"note": "Har skötbord",
		"website": "https://www.waldemarsudde.se/",
		"latitude": 59.32008,
		"longitude": 18.11367
	},
	{
		"name": "Rosendal",
		"address": "Rosendalsvägen 38, 115 21 Stockholm",
		"phone": "08-545 812 70",
		"openHours": "se hemsida",
		"note": "Har skötbord",
		"website": "http://www.rosendalstradgard.se/kafe/",
		"latitude": 59.32796,
		"longitude": 18.11556
	},
	{
		"name": "Skansen Terassen",
		"address": "Djurgårdsslätten 49, 115 21 Stockholm",
		"phone": "08-56637000",
		"openHours": "se hemsida",
		"note": "Har skötbord",
		"website": "http://www.skansen.se/sv/plats/skansen-terrassen",
		"latitude": 59.32443,
		"longitude": 18.10098
	},
	{
		"name": "Spritmuseum",
		"address": "Djurgårdsvägen 38, 115 21 Stockholm",
		"phone": "08-121 313 00",
		"openHours": "mån 10–17, tis till lör 10–19, sön 12–17",
		"note": "Har skötbord",
		"website": "http://spritmuseum.se",
		"latitude": 59.32695,
		"longitude": 18.0937
	},
	{
		"name": "Tekniska Museet",
		"address": "Museivägen 7, 115 27 Stockholm",
		"phone": "08-4505600",
		"openHours": "mån-tis 10-17, ons 10-20, tor-sön 10-17",
		"note": "Har skötbord",
		"website": "https://www.tekniskamuseet.se/",
		"latitude": 59.3325,
		"longitude": 18.11896
	},
	{
		"name": "Vasamuseet",
		"address": "Galärvarvsvägen 14, 115 21 Stockholm",
		"phone": "08-519 548 00",
		"openHours": "se hemsida",
		"note": "Har skötbord",
		"website": "https://www.vasamuseet.se/lattlast/oppettider-priser",
		"latitude": 59.32838,
		"longitude": 18.09171
	},
	{
		"name": "Villa Godthem",
		"address": "Rosendalsvägen 9, 115 21 Stockholm",
		"phone": "08-68423440",
		"openHours": "mån 11.30-22.00, tis-fre 11.30-23.00, lör 12.00-23.00, sön 12.00-22.00",
		"note": "Har skötbord",
		"website": "http://villagodthem.se/",
		"latitude": 59.3285,
		"longitude": 18.10024
	},
	{
		"name": "Agaton",
		"address": "Västerlånggatan 72, 111 29 Stockholm",
		"phone": "08-207299",
		"openHours": "mån-sön 11-23",
		"note": "Har skötbord",
		"website": "http://www.restaurangagaton.se/",
		"latitude": 59.32296,
		"longitude": 18.07228
	},
	{
		"name": "Medeltidsmuseet",
		"address": "Strömparrterren 3, 111 30 Stockholm",
		"phone": "08-50831790",
		"openHours": "tis, tor–sön, 12.00–17.00, ons 12.00–20.00,\\nmån stängt",
		"note": "Har skötbord",
		"website": "http://medeltidsmuseet.stockholm.se/",
		"latitude": 59.32844,
		"longitude": 18.0701
	},
	{
		"name": "Mr French",
		"address": "Skeppsbron 16, 111 30 Stockholm",
		"phone": "08-202095",
		"openHours": "se hemsida",
		"note": "Har skötbord",
		"website": "http://www.mrfrench.se/",
		"latitude": 59.32524,
		"longitude": 18.0754
	},
	{
		"name": "Myntkrogen c/o Postmuseum",
		"address": "Slottsbacken 6, 111 30 Stockholm",
		"phone": "08-104590",
		"openHours": "mån stängt, tis-fre: 11.30-14.00, lör-sön: 12.00-14.30",
		"note": "Sveriges ekonomiska museum har skötbord.",
		"website": "http://www.myntkrogen.se/",
		"latitude": 59.32591,
		"longitude": 18.07336
	},
	{
		"name": "Zum Franziskaner",
		"address": "Skeppsbron 44, 111 30 Stockholm",
		"phone": "08-4118330",
		"openHours": "tis-ons 11.00-23.00, tor 11.00-23.30, fre 11.00-00.00, lör 12.00-00.00, mån och sön stängt",
		"note": "Inget skötbord, men ett vanligt bord på handikapptoaletten att byta på.",
		"website": "https://zumfranziskaner.se/",
		"latitude": 59.32236,
		"longitude": 18.07414
	},
	{
		"name": "Andalucien",
		"address": "Döbelnsgatan 7, 113 52 Stockholm",
		"phone": "08-156660",
		"openHours": "mån-sön 16-01",
		"note": "Inget skötbord, men det finns soffor och källare som man kan använda.",
		"website": "http://www.andalucia.se/tapas.aspx",
		"latitude": 59.34507,
		"longitude": 18.05717
	},
	{
		"name": "Brasseri Norrtull",
		"address": "Sankt Eriksgatan 119, 113 43 Stockholm",
		"phone": "08-300205",
		"openHours": "se hemsida",
		"note": "Har skötbord",
		"website": "http://www.brasserinorrtull.se/",
		"latitude": 59.34767,
		"longitude": 18.04008
	},
	{
		"name": "Browallshof Hotell och Matsal",
		"address": "Surbrunnsgatan 20, 113 48 Stockholm",
		"phone": "08-165130",
		"openHours": "mån-fre 11.30-23.00, lör 17.00-23.00",
		"note": "Inget skötbord men det finns bänkar och barnstolar.",
		"website": "http://www.browallshof.se/index.php/kvarterskrog",
		"latitude": 59.34649,
		"longitude": 18.06114
	},
	{
		"name": "Brunkebergs Bageri",
		"address": "Dalagatan 9 J, 113 61 Stockholm",
		"phone": "08-12206120",
		"openHours": "mån-fre 07.00-18.00, lör-sön 08.00-17.00",
		"note": "Har skötbord",
		"website": "http://www.brunkebergsbageri.se/",
		"latitude": 59.33955,
		"longitude": 18.04747
	},
	{
		"name": "Café Ceasar",
		"address": "Ynglingagatan 24, 113 47 Stockholm",
		"phone": "08-32 51 50",
		"openHours": "Mån-Fre 07-17, Lör-sön 11-17",
		"note": "Har skötbord",
		"website": "http://cafecaesar.com/",
		"latitude": 59.34854,
		"longitude": 18.04496
	},
	{
		"name": "Hawaii Poké",
		"address": "Norrtullsgatan 9, 113 29 Stockholm",
		"phone": "08-304462",
		"openHours": "mån-lör 11-19",
		"note": "Har skötbord",
		"website": "https://www.hawaiipoke.se/",
		"latitude": 59.34179,
		"longitude": 18.05189
	},
	{
		"name": "Espresso House",
		"address": "Dalagatan 9 G, 113 61 Stockholm",
		"phone": "010-510 11 87",
		"openHours": "mån-sön 08-19",
		"note": "Har skötbord",
		"website": "https://espressohouse.com/coffee-shops/dalagatan/",
		"latitude": 59.33945,
		"longitude": 18.04757
	},
	{
		"name": "Espresso House",
		"address": "Sveavägen 96, 113 50 Stockholm",
		"phone": "010-510 12 25",
		"openHours": "mån-sön 08-19",
		"note": "Har skötbord",
		"website": "https://espressohouse.com/coffee-shops/sveavgen-sto/",
		"latitude": 59.34206,
		"longitude": 18.0577
	},
	{
		"name": "Ethio-Star Etiopien Restaurang och Bar",
		"address": "Saltmätargatan 19, 113 59 Stockholm",
		"phone": "08-305044",
		"openHours": "mån stängt, tis-tor 16-23, fre 16-01, lör 15-01, sön 15-22",
		"note": "Har skötbord",
		"website": "http://www.ethiostar.se/",
		"latitude": 59.34063,
		"longitude": 18.05729
	},
	{
		"name": "Grappa Matsal & Bar",
		"address": "Sankt Eriksgatan 86, 113 62 Stockholm",
		"phone": "08-30 80 05",
		"openHours": "mån-lör 15-01",
		"note": "Har skötbord",
		"website": "http://www.grappabar.nu/",
		"latitude": 59.34065,
		"longitude": 18.0376
	},
	{
		"name": "Grill",
		"address": "Drottninggatan 89, 113 60 Stockholm",
		"phone": "08-31 45 30",
		"openHours": "mån-fre 11-01, lör 16-01, sön 15-21",
		"note": "Har skötbord",
		"website": "http://grill.se/",
		"latitude": 59.33905,
		"longitude": 18.05609
	},
	{
		"name": "Greasy Spoon",
		"address": "Hagagatan 4, 113 48 Stockholm",
		"phone": "",
		"openHours": "mån-fre 08.00-16.00, lör-sön 09.00-17.00",
		"note": "Har skötbord",
		"website": "http://www.greasyspoon.se/",
		"latitude": 59.34442,
		"longitude": 18.0527
	},
	{
		"name": "Haga Restaurang & Delikatesser",
		"address": "Hagagatan 18, 113 48 Stockholm",
		"phone": "08-31 96 95",
		"openHours": "mån-ons 11.30-22.00, tor-fre 11.30-24.00, lör 17.00-24.00, sön 17.00-22.00",
		"note": "Inget skötbord, men finns källare där man kan byta.",
		"website": "http://www.hagadeli.com/",
		"latitude": 59.34536,
		"longitude": 18.05183
	},
	{
		"name": "Hard Rock Cafe",
		"address": "Sveavägen 75, 113 50 Stockholm",
		"phone": "08-545 494 00",
		"openHours": "mån-sön 11.30-00.00",
		"note": "Har skötbord",
		"website": "http://www.hardrock.com/cafes/stockholm/",
		"latitude": 59.34413,
		"longitude": 18.05481
	},
	{
		"name": "Hemma Vasastan",
		"address": "Dalagatan 28, 113 24 Stockholm",
		"phone": "08-652 60 88",
		"openHours": "mån-sön 11-23",
		"note": "Har skötbord",
		"website": "https://www.hemmavasastan.se/matsal",
		"latitude": 59.33958,
		"longitude": 18.0479
	},
	{
		"name": "Jensen's Bøfhus",
		"address": "Sveavägen 51, 113 59 Stockholm",
		"phone": "08-30 09 50",
		"openHours": "mån-sön 10-00",
		"note": "Har skötbord",
		"website": "http://www.jensens.com/sv/restauranger/sveavagen/",
		"latitude": 59.34001,
		"longitude": 18.05897
	},
	{
		"name": "Melanders Butik & Brasserie",
		"address": "Dalagatan 9R, 113 61 Stockholm",
		"phone": "08-30 03 00",
		"openHours": "mån-sön 11-23",
		"note": "Har skötbord",
		"website": "http://melanders.se/restauranger/brasseriet-dalagatan",
		"latitude": 59.34002,
		"longitude": 18.047
	},
	{
		"name": "Urban Deli",
		"address": "Sveavägen 44, 111 34 Stockholm",
		"phone": "08-425 500 20",
		"openHours": "Mån-tis 07-23, ons-lör 07-01, sön 07-23",
		"note": "Har skötbord",
		"website": "http://www.urbandeli.org/sveavagen/",
		"latitude": 59.33692,
		"longitude": 18.06256
	},
	{
		"name": "Bamboo Garden",
		"address": "Åsögatan 120, 116 24 Stockholm",
		"phone": "08-640 00 52",
		"openHours": "mån-sön 10-22",
		"note": "Har skötbord",
		"website": "https://bamboogarden.gastrogate.com/",
		"latitude": 59.31306,
		"longitude": 18.07578
	},
	{
		"name": "Barranco Hornhuset",
		"address": "Långholmsgatan 15B, 117 33 Stockholm",
		"phone": "08-52520260",
		"openHours": "mån – tor 11:00 – 00:00, fre 11:00 – 03:00, lör 12:00 – 03:00, sön 12:00 – 18:00",
		"note": "Har skötbord",
		"website": "http://www.hornhuset.se/barranco/",
		"latitude": 59.31661,
		"longitude": 18.03367
	},
	{
		"name": "Bistro Malmen",
		"address": "Götgatan 49-51, 116 21 Stockholm",
		"phone": "08-517 347 00",
		"openHours": "se hemsida",
		"note": "Har skötbord",
		"website": "https://www.scandichotels.se/hotell/sverige/stockholm/scandic-malmen/restaurang-bar/bistro-malmen",
		"latitude": 59.31465,
		"longitude": 18.07329
	},
	{
		"name": "Café String",
		"address": "Nytorgsgatan 38, 116 40 Stockholm",
		"phone": "08-714 85 14",
		"openHours": "mån-tor 09-22, fre-sön 09-19",
		"note": "Det finns en nedervåning som är tom där man kan byta blöja.",
		"website": "http://cafestring.se/",
		"latitude": 59.31343,
		"longitude": 18.08208
	},
	{
		"name": "Eken",
		"address": "Guldgränd 8, 118 20 Stockholm",
		"phone": "08-517 353 36",
		"openHours": "sön-tor 11.00-00.00, fre-lör 11.00-01.00",
		"note": "Har skötbord",
		"website": "http://ekenbar.se/index/?lang=sv",
		"latitude": 59.32045,
		"longitude": 18.06914
	},
	{
		"name": "Enzos Hornhuset",
		"address": "Långholmsgatan 15B, 117 33 Stockholm",
		"phone": "08-52520266",
		"openHours": "mån–tor 17.00–23.00, fre 17.00–01.00, lör 12.00–01.00, sön 12.00–23.00",
		"note": "Har skötbord",
		"website": "http://www.hornhuset.se/enzos/",
		"latitude": 59.31661,
		"longitude": 18.03367
	},
	{
		"name": "Espresso House",
		"address": "Götgatan 98, 118 62 Stockholm",
		"phone": "010 - 510 12 33",
		"openHours": "mån-fre 10:00-19:00, lör 10:00-18:00, sön 11:00-17:00",
		"note": "I anslutning till Ringen centrum",
		"website": "",
		"latitude": 59.30899,
		"longitude": 18.0756
	},
	{
		"name": "Fotografiska",
		"address": "Stadsgårdshamnen 22, 116 45 Stockholm",
		"phone": "08-509 005 00",
		"openHours": "mån-ons 09–23,\\ntor-lör 09–01,\\nsön 09–23",
		"note": "Har skötbord",
		"website": "http://fotografiska.eu/",
		"latitude": 59.318,
		"longitude": 18.08465
	},
	{
		"name": "Gondolen",
		"address": "Stadsgården 6, 116 45 Stockholm",
		"phone": "08-641 70 90",
		"openHours": "se hemsida",
		"note": "Har skötbord",
		"website": "http://www.eriks.se/gondolen/",
		"latitude": 59.31961,
		"longitude": 18.0732
	},
	{
		"name": "Grekiska Kolgrillsbaren",
		"address": "Ringvägen 57, 118 61 Stockholm",
		"phone": "08-668 99 99",
		"openHours": "mån-tor: 10-22, fre: 10-23, lör: 13-23, sön: 13-21",
		"note": "Har skötbord",
		"website": "http://www.restaurangagapi.se/",
		"latitude": 59.31074,
		"longitude": 18.05884
	},
	{
		"name": "Hornstullsgallerian",
		"address": "Långholmsgatan/Hornsbruksgatan",
		"phone": "",
		"openHours": "mån – fre 10–20, lör 10–18, sön 11–18",
		"note": "Restauranger: Akki Sushi, Beijing8, Espresso House, Gateau, Juiceverket, Klang Market, Noodle mama. Amningsrum och parnvagnsparkering.",
		"website": "http://hornstull.se/mat-dryck/",
		"latitude": 59.31668,
		"longitude": 18.03404
	},
	{
		"name": "Hotel Hilton Stockholm Slussen",
		"address": "Guldgränd 8 118 20 Stockholm",
		"phone": "08-517 353 00",
		"openHours": "se hemsida",
		"note": "Restauranger Eken Matsal och Panorama restaurang",
		"website": "http://www3.hilton.com/en/hotels/sweden/hilton-stockholm-slussen-STOSLHI/dining/index.html",
		"latitude": 59.32045,
		"longitude": 18.06914
	},
	{
		"name": "Hotel Rival (Bar, bistro & café)",
		"address": "Mariatorget 3, 118 91 Stockholm",
		"phone": "08-545 789 00",
		"openHours": "se hemsida",
		"note": "Har skötbord",
		"website": "http://www.rival.se/se/bar-bistro-cafe/",
		"latitude": 59.31816,
		"longitude": 18.06365
	},
	{
		"name": "Mahalo",
		"address": "Hornsgatan 61, 118 49 Stockholm",
		"phone": "08-420 565 44",
		"openHours": "Vardagar 09.00 - 20.00, Helger 10.00 - 17.00",
		"note": "Har skötbord",
		"website": "https://www.mahalosthlm.se/",
		"latitude": 59.31774,
		"longitude": 18.0544
	},
	{
		"name": "Jimmys Steakhouse Södermalm",
		"address": "Tjärhovsgatan 33, 116 28 Stockholm",
		"phone": "08-644 06 66",
		"openHours": "mån-sön kl 17-24",
		"note": "Har skötbord",
		"website": "http://jimmys.se/sodermalm/",
		"latitude": 59.31613,
		"longitude": 18.08454
	},
	{
		"name": "Koh Phangan",
		"address": "Skånegatan 57, 116 37 Stockholm",
		"phone": "08-642 50 40",
		"openHours": "Vardagar: 16-00, Helg: 13-00",
		"note": "Har skötbord",
		"website": "http://www.kohphangan.se/",
		"latitude": 59.31225,
		"longitude": 18.07882
	},
	{
		"name": "KÄK Hornstull",
		"address": "Hornsbruksgatan 24, 117 34 Stockholm",
		"phone": "08-669 13 12",
		"openHours": "Vardag: 11.30-21, helg: 12-21",
		"note": "I anslutning till Hornstull galleria",
		"website": "https://xn--kk-via.com/",
		"latitude": 59.31616,
		"longitude": 18.03478
	},
	{
		"name": "Linje Tio",
		"address": "Hornsbruksgatan 24, 117 34 Stockholm",
		"phone": "08-220021",
		"openHours": "Mån-Tor 17-01, Fre 16-02, Lör 12-02, Sön 12-01",
		"note": "I anslutning till Hornstull galleria",
		"website": "http://linjetio.com/",
		"latitude": 59.31616,
		"longitude": 18.03478
	},
	{
		"name": "McDonald's",
		"address": "Folkungagatan 50, 116 22 Stockholm",
		"phone": "08-640 17 00",
		"openHours": "mån-tor 07-04, fre 07-00, lör dygnet runt, sön 06-04",
		"note": "Har skötbord",
		"website": "",
		"latitude": 59.31414,
		"longitude": 18.07382
	},
	{
		"name": "McDonald's",
		"address": "Hornsgatan 88, 118 21 Stockholm",
		"phone": "08-84 12 18",
		"openHours": "mån-tor 09-00, fre-lör 09-04, sön 09-00",
		"note": "Har skötbord",
		"website": "",
		"latitude": 59.31789,
		"longitude": 18.0536
	},
	{
		"name": "Nytorget Urban Deli",
		"address": "Nytorget 4, 116 40 Stockholm",
		"phone": "08-425 500 30",
		"openHours": "mån-tis 8-23, ons-tor 8-00, fre-lör 8-01, sön 8-22",
		"note": "Har skötbord",
		"website": "http://www.urbandeli.org/nytorget/",
		"latitude": 59.31222,
		"longitude": 18.08272
	},
	{
		"name": "Paradiset (Restaurang Koloni)",
		"address": "Brännkyrkagatan 62, 118 23 Stockholm",
		"phone": "0705 105 417",
		"openHours": "mån-sön 11-20",
		"note": "Har skötbord",
		"website": "http://www.koloni.se/koloni-paradiset",
		"latitude": 59.31882,
		"longitude": 18.05616
	},
	{
		"name": "Restaurang Kvarnen",
		"address": "Medborgarplatsen 3, 118 26 Stockholm",
		"phone": "08-643 03 80",
		"openHours": "mån-tis 11-01, ons-fre 11-03, lör 12-03, sön 12-01",
		"note": "Inget skötbord, men stor bänk vid handfat.",
		"website": "",
		"latitude": 59.31464,
		"longitude": 18.07113
	},
	{
		"name": "Ringen centrum",
		"address": "Ringvägen 115, 118 60 Stockholm",
		"phone": "",
		"openHours": "se hemsida",
		"note": "Här finns bl.a. Teaterns food court, Espresso house och Medo sushi",
		"website": "http://www.ringencentrum.se/oppettider/",
		"latitude": 59.30785,
		"longitude": 18.07528
	},
	{
		"name": "Söderhallarna",
		"address": "Söderhallarna 110, 118 72 Stockholm",
		"phone": "",
		"openHours": "Varierar, för respektive restaurang se hemsida.",
		"note": "Här finns bl.a. Melanders, Sushi Yama, Pig & Whistle, Pasta Gudfadern och mycket mer.",
		"website": "http://www.soderhallarna.se/",
		"latitude": 59.3154,
		"longitude": 18.07102
	},
	{
		"name": "Kitchen & Table Norrmalm",
		"address": "Östra Järnvägsgatan 35, 111 20 Stockholm",
		"phone": "08-6769800",
		"openHours": "mån-fre 11.00-02.00 helger: se hemsida",
		"note": "Har skötbord",
		"website": "https://kitchenandtable.se/norrmalm/",
		"latitude": 59.33456,
		"longitude": 18.05353
	},
	{
		"name": "Hötorgshallen",
		"address": "Hötorgshallen 111, 57 Stockholm",
		"phone": "",
		"openHours": "mån-tor 10.00-18.00, fre 10.00-19.00, lör: 10.00-16.00",
		"note": "Sveriges största saluhall med 40 handlare på två plan.",
		"website": "http://www.hotorgshallen.se/hallen",
		"latitude": 59.33478,
		"longitude": 18.06243
	},
	{
		"name": "Bar Central",
		"address": "Birger Jarlsgatan 41, 111 45 Stockholm",
		"phone": "08-20 10 08",
		"openHours": "mån 11.30-22, tis-tor 11.30-23, fre 11.30-24, lör 17-24",
		"note": "Har skötbord",
		"website": "http://barcentral.se",
		"latitude": 59.33921,
		"longitude": 18.06755
	},
	{
		"name": "BarbeQue Steakhouse Stockholm",
		"address": "Kungsgatan 54, 111 35 Stockholm",
		"phone": "08-10 00 26",
		"openHours": "mån-tor 11.00–00.00, fre-lör 11.00–01.00, sön 11.00–00.00",
		"note": "Har skötbord",
		"website": "http://kungsgatan.bbqsteakhouse.se",
		"latitude": 59.33478,
		"longitude": 18.06006
	},
	{
		"name": "BarCelona Tapas Restaurang",
		"address": "Drottninggatan 34, 111 51 Stockholm",
		"phone": "08-22 37 00",
		"openHours": "mån 15:00-23:00, tis-fre 15:00-01:00, lör 12:00-01:00, sön 13:00-23:30",
		"note": "Har skötbord",
		"website": "http://barcelonatapas.se",
		"latitude": 59.33178,
		"longitude": 18.06362
	},
	{
		"name": "Berns Asiatiska",
		"address": "Berzelii Park 111, 47 Stockholm",
		"phone": "08-56632222",
		"openHours": "se hemsida",
		"note": "Har skötbord",
		"website": "http://www.berns.se/restaurant/berns-asiatiska/",
		"latitude": 59.33227,
		"longitude": 18.07389
	},
	{
		"name": "Boqueria",
		"address": "Jakobsbergsgatan 17, 111 44 Stockholm",
		"phone": "08-30 74 00",
		"openHours": "mån - ons 11.00-22.00,\\ntor 11.00-01.00, fre - lör 11.00-02.00,\\nsön 11.00-18.00",
		"note": "Har skötbord",
		"website": "http://www.boqueria.se",
		"latitude": 59.33469,
		"longitude": 18.0684
	},
	{
		"name": "Burger King",
		"address": "Sergels Torg 1, 111 57 Stockholm",
		"phone": "08-21 98 94",
		"openHours": "mån-tor 09–22, fre-lör 09–00, sön 10–22",
		"note": "Har skötbord",
		"website": "https://burgerking.se/restauranger/909205",
		"latitude": 59.33188,
		"longitude": 18.06447
	},
	{
		"name": "Centralstationen",
		"address": "Centralplan 15, 111 20 Stockholm",
		"phone": "08-410 626 00",
		"openHours": "mån-sön 05.00 – 24.00",
		"note": "För restauranger se hemsida",
		"website": "http://www.dinstation.se/stockholms-centralstation/mat-butiker/",
		"latitude": 59.33039,
		"longitude": 18.05873
	},
	{
		"name": "Noi",
		"address": "Norrmalmstorg 2-4, 111 46 Stockholm",
		"phone": "08-614 10 00",
		"openHours": "mån-tor 17-22, fre-lör 17-22, sön stängt",
		"note": "Tillhör Nobis hotell där det finns skötbord",
		"website": "http://www.nobishotel.se/en/",
		"latitude": 59.33318,
		"longitude": 18.07381
	},
	{
		"name": "Åhléns",
		"address": "Klarabergsgatan 50, 111 21 Stockholm",
		"phone": "08-676 60 00",
		"openHours": "Mån-fre 10:00 - 21:00, lör 10:00 - 19:00, sön 11:00 - 19:00",
		"note": "På plan 4 finns amningsrum och skötbord. Här kan man även värma mat, leka och se på film eller läsa en bok med barnen.",
		"website": "http://www.ahlens.se/cms/20160108_170957",
		"latitude": 59.33219,
		"longitude": 18.06165
	},
	{
		"name": "K25",
		"address": "Kungsgatan 25, 111 56 Stockholm",
		"phone": "08-212929",
		"openHours": "mån-fre 10-22, lör 11-22.",
		"note": "Har skötbord",
		"website": "http://k25.nu",
		"latitude": 59.33582,
		"longitude": 18.06744
	},
	{
		"name": "Scandic Continental",
		"address": "Vasagatan 22, 111 20 Stockholm",
		"phone": "08-51734200",
		"openHours": "se hemsida",
		"note": "Till hotellet hör restaurangen The Market och Café Caldo.",
		"website": "https://www.scandichotels.se/hotell/sverige/stockholm/scandic-continental/restaurang-bar",
		"latitude": 59.33115,
		"longitude": 18.05915
	},
	{
		"name": "Drottninghof",
		"address": "Drottninggatan 67, 111 36 Stockholm",
		"phone": "08-22 75 22",
		"openHours": "mån-fre 11 - 24, lör-sön 12-24",
		"note": "Har skötbord",
		"website": "http://www.drottninghof.se",
		"latitude": 59.33538,
		"longitude": 18.05979
	},
	{
		"name": "Mood gallerian",
		"address": "Regeringsgatan 48, 111 44 Stockholm",
		"phone": "08-6963100",
		"openHours": "mån-fre 10-20, lör 10-18, sön 11-17",
		"note": "Skötbord finns på de större toaletterna och det finns en amnings/toalett lounge på våning 3. För restauranger se hemsida.",
		"website": "http://moodstockholm.se/cafe-restaurang/",
		"latitude": 59.33692,
		"longitude": 18.06256
	},
	{
		"name": "Gallerian",
		"address": "Hamngatan 37, 111 53 Stockholm",
		"phone": "073 531 94 96",
		"openHours": "Vardagar 10-20, lör 10-18, sön 11-18",
		"note": "Toaletter och skötbord hittar du i södra delen av Gallerian. Besöket kostar 10 kronor och du kan växla på plats. För restauranger se hemsida.",
		"website": "http://gallerian.se",
		"latitude": 59.33244,
		"longitude": 18.06718
	},
	{
		"name": "Giro Pizzeria",
		"address": "Sveavägen 46, 111 34 Stockholm",
		"phone": "08-4406767",
		"openHours": "mån-tor 11.30-22.00, fre 11:30-23:00, lör 12:00-23:00, sön kl. 14:00-22:00",
		"note": "Tillhör hotell Miss Clara som har skötbord",
		"website": "http://giropizzeria.com",
		"latitude": 59.33713,
		"longitude": 18.06236
	},
	{
		"name": "Kulturhuset",
		"address": "Sergels Torg 3, 111 57 Stockholm",
		"phone": "08-506 20 200",
		"openHours": "mån–fre 9–19\\nlör–sön 11–17",
		"note": "Skötrum finns på våning 2. För restauranger se hemsida.",
		"website": "http://kulturhusetstadsteatern.se/Besok-oss/Kontakta-oss/",
		"latitude": 59.33223,
		"longitude": 18.06552
	},
	{
		"name": "Grand hotel",
		"address": "Södra Blasieholmshamnen 8, 103 27 Stockholm",
		"phone": "08 - 679 35 00",
		"openHours": "se hemsida",
		"note": "Till hotellet hör restaurangerna Mathias Dahlgren/Matbaren och Cadierbaren",
		"website": "https://www.grandhotel.se",
		"latitude": 59.32954,
		"longitude": 18.07539
	},
	{
		"name": "Kungshallen",
		"address": "Kungsgatan 44, 111 35 Stockholm",
		"phone": "",
		"openHours": "Foodcourt (Nedre plan)\\nVardagar 11-22, lör 11-22, sön 12-22",
		"note": "Skötbord finns på handikapptoaletten som öppnas från restaurang Taco Bar. För restauranger se hemsida.",
		"website": "http://www.kungshallen.eu",
		"latitude": 59.33533,
		"longitude": 18.06223
	},
	{
		"name": "Restaurant Swede Hollow",
		"address": "Vasaplan 4, 111 20 Stockholm",
		"phone": "08-50 56 35 08",
		"openHours": "se hemsida",
		"note": "Tillhör Nordic C Hotel som har skötbord",
		"website": "http://www.heartssthlm.com",
		"latitude": 59.33217,
		"longitude": 18.05669
	},
	{
		"name": "Kung Carls Bakficka",
		"address": "Norrlandsgatan 28, 111 43 Stockholm",
		"phone": "08-463 50 80",
		"openHours": "mån: 06.30-23.00 tis-fre: 06.30-01.00, lör: 07.15-01.00, sön: 07.15-17.00",
		"note": "Tillhör Hotell Kung Carl som har skötbord",
		"website": "http://www.kungcarlsbakficka.se",
		"latitude": 59.33635,
		"longitude": 18.07105
	},
	{
		"name": "La Bodega Tapas Bar",
		"address": "Döbelnsgatan 8, 111 40 Stockholm",
		"phone": "08-22 77 01",
		"openHours": "mån-tor 17:00-23:00\\nfre -lör 17:00-24:00",
		"note": "Har skötbord",
		"website": "",
		"latitude": 59.33988,
		"longitude": 18.06272
	},
	{
		"name": "The Dining room",
		"address": "Södra Blasieholmshamnen 2, 111 48 Stockholm",
		"phone": "08-223160",
		"openHours": "mån-sön 07:00-01:00",
		"note": "Tillhör Lydmar Hotel som har skötbord",
		"website": "http://lydmar.com",
		"latitude": 59.3283,
		"longitude": 18.07773
	},
	{
		"name": "Hotell Haymarket by Scandic",
		"address": "Hötorget 13-15, 111 57 Stockholm",
		"phone": "08 517 26 700",
		"openHours": "se hemsida",
		"note": "Till hotellet hör restaurangen Greta och Paul's",
		"website": "https://www.scandichotels.se/hotell/sverige/stockholm/haymarket-by-scandic/restaurang-bar",
		"latitude": 59.33484,
		"longitude": 18.06235
	},
	{
		"name": "The Crooked Leg",
		"address": "Vasaplan 7, 111 20 Stockholm",
		"phone": "08-50 56 32 00",
		"openHours": "se hemsida",
		"note": "Tillhör Nordic Light Hotel som har skötbord",
		"website": "https://nordiclighthotel.se/hitta-hit/",
		"latitude": 59.33217,
		"longitude": 18.05669
	},
	{
		"name": "MAX Hamburgerrestauranger",
		"address": "Kungsträdgårdsgatan 20, 111 47 Stockholm",
		"phone": "08-611 38 10",
		"openHours": "mån-tis 10.00–01.00, ons-tor 10.00–05.00, fre-lör 10.00–06.00, sön 10.00–01.00",
		"note": "Har skötbord",
		"website": "http://www.max.se",
		"latitude": 59.33259,
		"longitude": 18.07192
	},
	{
		"name": "McDonald's",
		"address": "Kungsgatan 4A, 111 43 Stockholm",
		"phone": "08-20 51 18",
		"openHours": "Dygnet runt alla dagar",
		"note": "Har skötbord",
		"website": "http://www.mcdonalds.se/se.html",
		"latitude": 59.33623,
		"longitude": 18.07069
	},
	{
		"name": "McDonald's",
		"address": "Regeringsgatan 20, 111 53 Stockholm",
		"phone": "08-24 31 03",
		"openHours": "mån-fre 7:00-21:00, lör-sön 8:00-20:00",
		"note": "Har skötbord",
		"website": "http://www.mcdonalds.se/se.html",
		"latitude": 59.33109,
		"longitude": 18.06862
	},
	{
		"name": "Miss Clara by Nobis",
		"address": "Sveavägen 48, 111 34 Stockholm",
		"phone": "08-440 67 00",
		"openHours": "se hemsida",
		"note": "Tillhör Hotell Miss Clara där det finns skötbord",
		"website": "https://missclarahotel.com/restaurant-bar",
		"latitude": 59.33758,
		"longitude": 18.06193
	},
	{
		"name": "Pizza Hut",
		"address": "Klarabergsgatan 56, 111 21 Stockholm",
		"phone": "08-24 54 44",
		"openHours": "mån-fre 10-23, lör-sön 10-24",
		"note": "Har skötbord",
		"website": "http://www.pizzahut.se",
		"latitude": 59.33183,
		"longitude": 18.06018
	},
	{
		"name": "Pizza Hut",
		"address": "Slöjdgatan 10, 111 57 Stockholm",
		"phone": "08-411 45 20",
		"openHours": "mån-fre 10-22,lör-sön 12-22",
		"note": "Har skötbord",
		"website": "http://www.pizzahut.se",
		"latitude": 59.33389,
		"longitude": 18.06269
	},
	{
		"name": "Pong Asian Restaurang",
		"address": "Klara Tvärgränd 3, 111 52 Stockholm",
		"phone": "08-440 02 08",
		"openHours": "Mån–tis 10.30 – 22.00, ons–fre 10.30 – 23.00, lör 12.00 – 23.00, sön 12.00 – 22.00",
		"note": "Har skötbord",
		"website": "http://pongasian.se",
		"latitude": 59.33024,
		"longitude": 18.06403
	},
	{
		"name": "Pong Buffé",
		"address": "Drottninggatan 71C, 111 36 Stockholm",
		"phone": "08-20 45 63",
		"openHours": "Mån–tis 10.30–22.00, ons –fre 10.30–23.00, lör 12.00–23.00, sön 12.00–22.00",
		"note": "Har skötbord",
		"website": "http://pongbuffe.se",
		"latitude": 59.33644,
		"longitude": 18.05873
	},
	{
		"name": "Público",
		"address": "Rödbodtorget 2, 111 52 Stockholm",
		"phone": "08-505 244 16",
		"openHours": "tis 17.00 – 00.00, ons-tor 17.00 – 01.00, fre-lör 17.00 – 01.00, sön-mån stängt",
		"note": "Har skötbord",
		"website": "http://publico.se",
		"latitude": 59.32874,
		"longitude": 18.06393
	},
	{
		"name": "Restaurang Paladar de Cuba",
		"address": "Tegnérgatan 19, 111 40 Stockholm",
		"phone": "08-35 25 20",
		"openHours": "mån-fre 11-20 lör-sön: 12-20",
		"note": "Har skötbord",
		"website": "http://www.paladar.se",
		"latitude": 59.3399,
		"longitude": 18.06165
	},
	{
		"name": "Moderna Museet",
		"address": "Slupskjulsvägen 7, 111 49 Stockholm, Sweden",
		"phone": "08-520 235 00",
		"openHours": "mån stängt, tis 10–20, ons 10–18, tor 10–18, fre 10–20, lör 11–17, sön 11–17",
		"note": "Restaurang finns i museet",
		"website": "http://www.modernamuseet.se/stockholm/sv/",
		"latitude": 59.32628,
		"longitude": 18.08508
	},
	{
		"name": "Restaurang Scandic Norra Bantorget",
		"address": "Wallingatan 15, 111 24 Stockholm",
		"phone": "08-517 670 00",
		"openHours": "se hemsida",
		"note": "Tillhör Scandic Hotell som har skötbord",
		"website": "https://www.scandichotels.se/restauranger-och-barer",
		"latitude": 59.33681,
		"longitude": 18.05649
	},
	{
		"name": "Shahrzad",
		"address": "Regeringsgatan 111, 111 39 Stockholm",
		"phone": "08-660 60 60",
		"openHours": "se hemsida",
		"note": "Har skötbord",
		"website": "http://shahrzad.se",
		"latitude": 59.34051,
		"longitude": 18.06538
	},
	{
		"name": "Threesixty restaurant",
		"address": "Tegelbacken 6, 111 52 Stockholm",
		"phone": "08-4123472",
		"openHours": "se hemsida",
		"note": "Tillhör Hotell Sheraton som har skötbord",
		"website": "https://www.threesixtyrestaurant.com/sv/groups",
		"latitude": 59.32888,
		"longitude": 18.06174
	},
	{
		"name": "Skeppsholmens Krogkonst",
		"address": "Flaggmansvägen 6, 111 49 Stockholm",
		"phone": "08-611 99 89",
		"openHours": "Vardagar 11.30-13.30",
		"note": "Har skötbord",
		"website": "http://www.krogkonst.se",
		"latitude": 59.32465,
		"longitude": 18.08178
	},
	{
		"name": "Stockholm Fisk",
		"address": "Vasagatan 1, 111 20 Stockholm",
		"phone": "08-580 017 30",
		"openHours": "mån-fre 11-2230 lör 13-22.30 sön 13-21.30",
		"note": "Har skötbord",
		"website": "http://www.stockholmfisk.se",
		"latitude": 59.33143,
		"longitude": 18.05812
	},
	{
		"name": "Teaterbrasseriet",
		"address": "Kungsgatan 70, 111 22 Stockholm",
		"phone": "08 512 520 32",
		"openHours": "se hemsida",
		"note": "Tillhör Hotell Scandic Grand Central som har skötbord",
		"website": "https://www.scandichotels.se/hotell/sverige/stockholm/grand-central-by-scandic/restaurang-bar/teaterbrasseriet",
		"latitude": 59.3338,
		"longitude": 18.0561
	},
	{
		"name": "TGI Fridays",
		"address": "Hamngatan 19, 111 47 Stockholm",
		"phone": "08-10 06 26",
		"openHours": "mån -tor 11.30–00.00 fre 11.30–01.00 lör 11.30–01.00 sön 12.00–00.00",
		"note": "Har skötbord",
		"website": "https://fridays.se/",
		"latitude": 59.3327,
		"longitude": 18.07129
	},
	{
		"name": "Vapiano",
		"address": "Kungsbron 15, 111 22 Stockholm",
		"phone": "08-24 29 40",
		"openHours": "mån-tor 11.00–00.00, fre-lör 11.00–01.00, sön 11.00–00.00",
		"note": "Har skötbord",
		"website": "http://se.vapiano.com/sv/home/",
		"latitude": 59.33253,
		"longitude": 18.05232
	},
	{
		"name": "Wagamama",
		"address": "Klarabergsviadukten 65, 111 64 Stockholm",
		"phone": "08-519 422 73",
		"openHours": "mån-fre 11.00–22.00, lör 12.00–22.00, sön 12.00–21.00",
		"note": "Har skötbord",
		"website": "https://www.wagamama.se",
		"latitude": 59.33017,
		"longitude": 18.05501
	},
	{
		"name": "Zócalo - Fresh Happy Mex",
		"address": "Klarabergsgatan 29, 111 21 Stockholm",
		"phone": "08-409 115 07",
		"openHours": "mån-fre 11-21 lör:12-21 sön: 12-20",
		"note": "Har skötbord",
		"website": "https://zocalo.se",
		"latitude": 59.33196,
		"longitude": 18.06221
	},
	{
		"name": "Zócalo - Fresh Happy Mex",
		"address": "Regeringsgatan 20, 111 53 Stockholm",
		"phone": "08-409 115 08",
		"openHours": "mån-fre 11-21 lör: 12-21 sön: 12-19",
		"note": "Har skötbord",
		"website": "https://zocalo.se",
		"latitude": 59.33109,
		"longitude": 18.06862
	},
	{
		"name": "Stockholm Stadsbibliotek",
		"address": "Sveavägen 73, 113 80 Stockholm",
		"phone": "08-508 31105",
		"openHours": "mån-tor 10:00 – 21:00, fre 10:00 – 19:00, lör-sön 11:00 – 17:00",
		"note": "Café på entréplan och biblioteket anordnar många barnaktivteter",
		"website": "https://biblioteket.stockholm.se/bibliotek/stadsbiblioteket",
		"latitude": 59.34343,
		"longitude": 18.05511
	},
	{
		"name": "Musik- och teaterbiblioteket",
		"address": "Torsgatan 19, 113 21 Stockholm",
		"phone": "08-519 554 00",
		"openHours": "tis kl 12–17, ons kl 12–16, tor kl 12–19, fre kl 12–16",
		"note": "Har skötbord",
		"website": "http://musikverket.se/musikochteaterbiblioteket//",
		"latitude": 59.33708,
		"longitude": 18.04276
	},
	{
		"name": "Östasiatiska museet",
		"address": "Tyghusplan, 111 49 Stockholm",
		"phone": "010-456 12 97",
		"openHours": "mån stängt, tis 11–20, ons-sön 11–17",
		"note": "Finns även ett café",
		"website": "http://www.varldskulturmuseerna.se/ostasiatiskamuseet/",
		"latitude": 59.32705,
		"longitude": 18.08213
	},
	{
		"name": "Dansmuseet",
		"address": "Drottninggatan 17, 111 51 Stockholm",
		"phone": "08-441 76 51",
		"openHours": "mån stängt, tis-fre 11–17, lör 12–16, sön 12–16",
		"note": "Finns även en restaurang",
		"website": "http://www.dansmuseet.se",
		"latitude": 59.32975,
		"longitude": 18.06539
	},
	{
		"name": "Sven-Harrys Konstmuseum",
		"address": "Eastmansvägen 10, 113 61 Stockholm",
		"phone": "08-511 600 60",
		"openHours": "mån-tis stängt, ons-fre 11–19, lör-sön 11–17",
		"note": "Har skötbord",
		"website": "http://www.sven-harrys.se/sv/",
		"latitude": 59.33952,
		"longitude": 18.04419
	},
	{
		"name": "Bonniers Konsthall",
		"address": "Torsgatan 19, 113 21",
		"phone": "08-736 42 48",
		"openHours": "mån-tis stängt, ons 12–20, tor-sön 12–17",
		"note": "Finns även café",
		"website": "http://www.bonnierskonsthall.se",
		"latitude": 59.33708,
		"longitude": 18.04276
	},
	{
		"name": "Björk Bar & Grill",
		"address": "Rålambshovsleden 50, 112 19 Stockholm",
		"phone": "08-441 31 54",
		"openHours": "se hemsida",
		"note": "Tillhör hotell Courtyard Stockholm som har skötbord",
		"website": "http://bjorkbarochgrill.se",
		"latitude": 59.3313,
		"longitude": 18.0214
	},
	{
		"name": "Café Blåbär",
		"address": "Fleminggatan 53, 112 32 Stockholm",
		"phone": "08-653 83 58",
		"openHours": "mån-fre 07.00–19.00 lör 10.00–17.00 sön stängt",
		"note": "Har skötbord",
		"website": "http://www.cafeblabar.se",
		"latitude": 59.33368,
		"longitude": 59.33368
	},
	{
		"name": "Gnarly Burger",
		"address": "Fridhemsgatan 13, 112 40 Stockholm",
		"phone": "08-519 423 00",
		"openHours": "mån-sön 11-21, tis-tor 11-22, fre-lör 11– sent",
		"note": "Har skötbord",
		"website": "http://www.gnarlyburger.se",
		"latitude": 59.33128,
		"longitude": 18.02732
	},
	{
		"name": "Grekiska kolgrillsbaren S:t Göran",
		"address": "Sankt Göransgatan 121, 112 45 Stockholm",
		"phone": "08-619 04 00",
		"openHours": "mån-tor 10.00–22.00, fre 10.00–23.00, lör-sön 12.00–23.00",
		"note": "Har skötbord",
		"website": "https://grekiska.se/",
		"latitude": 59.33418,
		"longitude": 18.02462
	},
	{
		"name": "Kitchen & Table Kungsholmen",
		"address": "Kungsholmsgatan 31, 112 27 Stockholm",
		"phone": "08-692 52 00",
		"openHours": "Alla dagar: 11-23",
		"note": "Tillhör Clarion hotell som har skötbord",
		"website": "http://www.kitchenandtable.se",
		"latitude": 59.33135,
		"longitude": 18.04518
	},
	{
		"name": "Panini",
		"address": "Lindhagensgatan 104C, 112 18 Stockholm",
		"phone": "08-619 06 20",
		"openHours": "mån-fre 7-18.30, lör 11-16, sön stängt",
		"note": "Har skötbord",
		"website": "http://panini.nu",
		"latitude": 59.33561,
		"longitude": 18.01278
	},
	{
		"name": "Piren Restaurang & Bar",
		"address": "Kristinebergs Strand 2, 112 52 Stockholm",
		"phone": "08-618 30 30",
		"openHours": "se hemsida",
		"note": "Har skötbord",
		"website": "http://www.piren-bar.se",
		"latitude": 59.33836,
		"longitude": 18.00152
	},
	{
		"name": "Trattorian",
		"address": "Norr Mälarstrand 29, 112 20 Stockholm",
		"phone": "08-684 238 70",
		"openHours": "se hemsida",
		"note": "Har skötbord",
		"website": "http://www.trattorian.se",
		"latitude": 59.32657,
		"longitude": 18.04409
	},
	{
		"name": "Restaurant Lokal",
		"address": "Scheelegatan 8, 112 23 Stockholm",
		"phone": "08-650 98 09",
		"openHours": "mån-tis 17-01, ons 17-02, tor 17-02, fre 16-03, lör 17-03",
		"note": "Har skötbord",
		"website": "http://lokalizakaya.se",
		"latitude": 59.32968,
		"longitude": 18.04373
	},
	{
		"name": "Stadshuskällaren",
		"address": "Hantverkargatan 1, 112 21 Stockholm",
		"phone": "08-586 218 30",
		"openHours": "mån-fre 11.30–14.30, 17.00–23.00, lör 17.00–23.00, sön stängt",
		"note": "Har skötbord",
		"website": "http://www.stadshuskallarensthlm.se",
		"latitude": 59.32782,
		"longitude": 18.05514
	},
	{
		"name": "Västermalmsgallerian",
		"address": "Sankt Eriksgatan 45, 112 34 Stockholm",
		"phone": "08–696 30 31",
		"openHours": "mån–fre 10.00–19.00, lör 10.00–17.00, sön 11.00–17.00",
		"note": "Har skötbord",
		"website": "http://www.vastermalmsgallerian.se",
		"latitude": 59.33466,
		"longitude": 18.03234
	},
	{
		"name": "39Wäst",
		"address": "Fleminggatan 39, 112 32 Stockholm",
		"phone": "08-650 22 20",
		"openHours": "mån-tor 17.00–00.00, fre 16.00–01.00, lör 17.00–01.00, sön stängt",
		"note": "Har skötbord",
		"website": "http://39wast.se",
		"latitude": 59.33327,
		"longitude": 18.04075
	},
	{
		"name": "Solna centrum",
		"address": "Solna Torg 13, 171 45 Solna",
		"phone": "08-400 005 00",
		"openHours": "mån-fre 10-20, lör-sön 10-18",
		"note": "Har skötbord",
		"website": "http://solnacentrum.se/",
		"latitude": 59.35923,
		"longitude": 18.00121
	},
	{
		"name": "Mall of Scandinavia",
		"address": "Stjärntorget 2, 169 79 Solna",
		"phone": "08-400 080 00",
		"openHours": "mån-sön 10-21",
		"note": "Här finns både amningsrum och skötbord.",
		"website": "http://mallofscandinavia.se/",
		"latitude": 59.3689,
		"longitude": 18.00599
	},
	{
		"name": "Bromma Blocks",
		"address": "Ulvsundavägen 185-193, 168 67 Bromma",
		"phone": "",
		"openHours": "Vardagar 10-20, lör-sön 10-18",
		"note": "Här finns både amningsrum och skötbord.",
		"website": "http://brommablocks.se/",
		"latitude": 59.35474,
		"longitude": 17.95668
	},
	{
		"name": "Winterviken",
		"address": "Vinterviksvägen 60, 117 65 Stockholm",
		"phone": "08-400 264 80",
		"openHours": "11.00-16.00 alla dagar",
		"note": "Sago- och lekhörna med barnpassning på lördagar.",
		"website": "http://www.winterviken.se/cafe-stockholm",
		"latitude": 59.31162,
		"longitude": 17.99272
	},
	{
		"name": "Phil's burger",
		"address": "Sundbybergs torg 1, 172 67 Sundbyberg",
		"phone": "08-408 840 90",
		"openHours": "mån-tis 06:30–22, ons-tor 06:30–00, fre 06:30–01, lör 08–01, sön 08–22.",
		"note": "Har skötbord",
		"website": "http://www.philsburger.se/sundbyberg/",
		"latitude": 59.36159,
		"longitude": 17.9674
	},
	{
		"name": "Gamla orangeriet",
		"address": "Veit Wittrocks väg 7, 104 05 Stockholm",
		"phone": "08-612 09 59",
		"openHours": "se hemsida",
		"note": "Har skötbord",
		"website": "http://gamlaorangeriet.se/",
		"latitude": 59.36984,
		"longitude": 18.04604
	},
	{
		"name": "Liljeholmstorgets galleria",
		"address": "Nybohovsbacken 38, 117 61 Stockholm",
		"phone": "08-52280310",
		"openHours": "mån-fre 10-20, lör-sön 10-18",
		"note": "Har skötbord",
		"website": "https://www.liljeholmstorget.se/",
		"latitude": 59.30925,
		"longitude": 18.02275
	},
	{
		"name": "Sickla köpkvarter",
		"address": "Simbagatan, 131 34 Nacka",
		"phone": "08-644 21 28",
		"openHours": "mån-fre 10-20, lör 10-18, sön 11-17",
		"note": "Har skötbord",
		"website": "http://kopkvarter.sickla.se/",
		"latitude": 59.30586,
		"longitude": 18.12891
	},
	{
		"name": "Dalaröbageriet",
		"address": "Odinsvägen 15, 137 70 Dalarö",
		"phone": "08-501 511 66",
		"openHours": "se hemsida.",
		"note": "Inget skötbord, men gott om yta på en bänk.",
		"website": "http://www.dalarobageri.se/",
		"latitude": 59.13177,
		"longitude": 18.40682
	},
	{
		"name": "Nacka Forum",
		"address": "Forumvägen 14  131 53 Nacka",
		"phone": "08-40 000 300",
		"openHours": "mån-fre 10:00-20:00, lör 10:00 -18:00, sön 11:00-18:00",
		"note": "Har skötbord",
		"website": "http://nackaforum.se/kvalitetsmarkt",
		"latitude": 59.31073,
		"longitude": 18.16531
	},
	{
		"name": "Artipelag",
		"address": "Artipelagstigen 1, 134 40 Gustavsberg",
		"phone": "08-57013000",
		"openHours": "se hemsida",
		"note": "Har skötbord",
		"website": "http://artipelag.se/besok-artipelag/hitta-hit/",
		"latitude": 59.30653,
		"longitude": 18.34679
	},
	{
		"name": "Drottningholms slottscafé, Karamellan",
		"address": "Drottningholms Slott 10, 178 93 Drottningholm",
		"phone": "08-759 00 35",
		"openHours": "se hemsida",
		"note": "Har skötbord",
		"website": "http://www.drottningholmsslottscafe.se/",
		"latitude": 59.32337,
		"longitude": 17.88827
	},
	{
		"name": "Kalaskransens konditori",
		"address": "Svandammsvägen 17b, 126 35 Stockholm",
		"phone": "070-5611237",
		"openHours": "tis-fre 07:00-18:00, lör-sön  09:00-16:00",
		"note": "Har skötbord",
		"website": "http://www.kalaskransen.se/",
		"latitude": 59.30143,
		"longitude": 18.0131
	},
	{
		"name": "Tensta Konsthall",
		"address": "Taxingegränd 10, 163 04 Spånga",
		"phone": "08-36 07 63",
		"openHours": "ons 12-20, tor-fre 12-18, lör-sön 12-17",
		"note": "Har skötbord",
		"website": "http://www.tenstakonsthall.se/?nu",
		"latitude": 59.39368,
		"longitude": 17.9033
	},
	{
		"name": "Paradiset City",
		"address": "Regeringsgatan 44, 111 56 Stockholm",
		"phone": "08-613 36 00",
		"openHours": "mån-fre 08:00-20:00, \\nlör 10:00-18:00\\nsön 11:00-17:00",
		"note": "Har skötbord",
		"website": "http://paradiset.com",
		"latitude": 59.33392,
		"longitude": 59.33392
	},
	{
		"name": "NK Nordiska Kompaniet",
		"address": "Hamngatan 18-22, 111 47 Stockholm",
		"phone": "08-762 80 00",
		"openHours": "mån-fre 08:00-20:00, \\nlör 10:00-18:00\\nsön 11:00-17:00",
		"note": "Har skötbord",
		"website": "https://www.nk.se/stockholm/",
		"latitude": 59.33285,
		"longitude": 18.06937
	},
	{
		"name": "Brunkebergs bageri och bistro",
		"address": "Birger Jarlsgatan 53, 111 45 Stockholm",
		"phone": "08-10 62 25",
		"openHours": "mån-fre 07:00-18:00, \\nlör-sön 08:00-17:00",
		"note": "Har skötbord",
		"website": "http://brunkebergsbageriochbistro.se/",
		"latitude": 59.33981,
		"longitude": 18.06693
	},
	{
		"name": "Urban Deli",
		"address": "Sveavägen 44, 111 34 Stockholm",
		"phone": "08-425 500 20",
		"openHours": "mån-tis 07:00 - 23:00\\nons-lör 07:00 - 01:00\\nsön 07:00 - 23:00",
		"note": "Har skötbord",
		"website": "http://www.urbandeli.org/sveavagen/",
		"latitude": 59.33692,
		"longitude": 18.06256
	},
	{
		"name": "Oaxen",
		"address": "Beckholmsvägen 26, 115 21 Stockholm",
		"phone": "08-551 531 05",
		"openHours": "12–16, 17–23",
		"note": "Har skötbord",
		"website": "http://oaxen.com",
		"latitude": 59.32243,
		"longitude": 18.10175
	},
	{
		"name": "Naturhistoriska riksmuseet",
		"address": "Frescativägen 40, 114 18 Stockholm",
		"phone": "08-519 540 00",
		"openHours": "tis-sön 09:00-18:00\\nmån stängt",
		"note": "Har skötbord",
		"website": "http://www.nrm.se/",
		"latitude": 59.3688,
		"longitude": 18.0534
	},
	{
		"name": "Historiska museet",
		"address": "Narvavägen 13-17, 114 84 Stockholm",
		"phone": "08-519 556 00",
		"openHours": "tis-sön 11:00-17:00\\nmån stängt",
		"note": "Har skötbord",
		"website": "https://historiska.se/",
		"latitude": 59.3344,
		"longitude": 18.09159
	},
	{
		"name": "Nordiska museet",
		"address": "Djurgårdsvägen 6-16, 115 21 Stockholm",
		"phone": "08-519 546 00",
		"openHours": "tor-tis 10:00–17:00\\nonsdag 10:00–20:00",
		"note": "Har skötbord",
		"website": "http://www.nordiskamuseet.se",
		"latitude": 59.32916,
		"longitude": 18.09396
	},
	{
		"name": "Chokladfabriken",
		"address": "Renstiernas Gata 12, 116 28 Stockholm",
		"phone": "08-6400568",
		"openHours": "mån-fre 08.00-18.00\\nlör 10.00-17.00\\nsön 10.00-17.00",
		"note": "Har skötbord",
		"website": "http://www.chokladfabriken.com/kontakt",
		"latitude": 59.316275,
		"longitude": 18.083194
	},
	{
		"name": "China Wang",
		"address": "Kungsgatan 62, 111 22 Stockholm",
		"phone": "08-200110",
		"openHours": "mån-tor 10.30-21.30 fre 10.30-22.30, lör 12.00-22.30, sön 12.00-21.30",
		"note": "Har skötbord",
		"website": "http://chinawang.se",
		"latitude": 59.334417,
		"longitude": 18.058315
	},
	{
		"name": "Raw Sthlm",
		"address": "Långholmsgatan 11, 117 33 Stockholm",
		"phone": "08-12057305",
		"openHours": "tis-fre 10.00–17.00, lör 11.00–16.00, sön-mån Stängt",
		"note": "Har skötbord",
		"website": "https://unbakery.se/",
		"latitude": 59.317203,
		"longitude": 18.033218
	},
	{
		"name": "coffe house by george",
		"address": "Sveavägen 20 11157 Stockholm",
		"phone": "08-54522700",
		"openHours": "mån-fre 10:00 - 19:00\\nlör 10:00 - 18:00\\nsön 12:00 - 17:00",
		"note": "Har skötbord",
		"website": "https://www.mio.se/butiker/city-stockholm",
		"latitude": 59.334734,
		"longitude": 18.064442
	},
	{
		"name": "Espresso house",
		"address": "Hornsbruksgatan 28, 117 34 Stockholm",
		"phone": "076-521 93 27",
		"openHours": "mån–fre 06.30-21.00\\nlör 08.00-20.00\\nsön 08.00-21.00",
		"note": "Har skötbord",
		"website": "https://espressohouse.com",
		"latitude": 59.31609,
		"longitude": 18.034306
	},
	{
		"name": "Hotell skeppsholmen",
		"address": "Gröna gången 1, 111 86 Stockholm",
		"phone": "08-4072300",
		"openHours": "mån-fre 07.00-22.00\\nlör-sön 07.30-22.00",
		"note": "Har skötbord",
		"website": "http://www.hotelskeppsholmen.se/",
		"latitude": 59.324725,
		"longitude": 18.087639
	},
	{
		"name": "Jamie's Italian",
		"address": "Humlegårdsgatan 23, 102 44 Stockholm",
		"phone": "08-51734020",
		"openHours": "mån-sön 12.00-22.00",
		"note": "Har skötbord",
		"website": "https://www.jamieoliver.com/italian/sweden/",
		"latitude": 59.336974,
		"longitude": 18.073208
	},
	{
		"name": "Carolas Eko",
		"address": "Stora Skuggans Väg 12, 115 42 Stockholm",
		"phone": "08-155070",
		"openHours": "tis-lör 11.00–16.00\\nSön-mån Stängt",
		"note": "Har skötbord",
		"website": "http://carolaseko.se/",
		"latitude": 59.363694,
		"longitude": 18.074782
	},
	{
		"name": "Hotell diplomat",
		"address": "Strandvägen 7C, 114 56 Stockholm",
		"phone": "08-459 68 00",
		"openHours": "se hemsida",
		"note": "Har skötbord",
		"website": "http://www.diplomathotel.com/sv/hotell-diplomat-stockholm/",
		"latitude": 59.332218,
		"longitude": 18.080499
	},
	{
		"name": "Café Ektorpet",
		"address": "Prins Eugens Väg 3, 115 21 Stockholm",
		"phone": "08-545 837 17",
		"openHours": "Tis-sön 11.00-17.00\\nMån Stängt",
		"note": "Har skötbord",
		"website": "https://www.waldemarsudde.se/besok-oss/restaurang-cafe/",
		"latitude": 59.321944,
		"longitude": 18.114232
	},
	{
		"name": "Edvard Anderssons växthus - Bergianska trädgården",
		"address": "Veit Wittrocks väg 5, 114 18 Stockholm",
		"phone": "08-16 37 01",
		"openHours": "mån-fre 11.00-16.00\\nlör-sön 11.00-17.00",
		"note": "Har skötbord",
		"website": "http://www.bergianska.se/",
		"latitude": 59.369383,
		"longitude": 18.046411
	},
	{
		"name": "Zeta Finsmakarens Trädgård",
		"address": "Blombacken 2, 141 70 Segeltorp",
		"phone": "08-525 297 00",
		"openHours": "mån-fre 10.00-18.00\\nlör-sön 10.00-17.00",
		"note": "Har skötbord",
		"website": "https://www.zetas.se",
		"latitude": 59.275589,
		"longitude": 17.924846
	},
	{
		"name": "Caféet i Filadelfia kyrkan i rörstrandsgatan i st eriksplan. F",
		"address": "Rörstrandsgatan 5, 113 40 Stockholm",
		"phone": "08-457 09 00",
		"openHours": "mån-fre 10.00-12.00",
		"note": "Har skötbord",
		"website": "https://www.filadelfiakyrkan.se",
		"latitude": 59.339436,
		"longitude": 18.034443
	},
	{
		"name": "Sjöhistoriska museet",
		"address": "Djurgårdsbrunnsvägen 24, 115 27 Stockholm",
		"phone": "08-519 549 00",
		"openHours": "tis-sön 10.00-17.00",
		"note": "Har skötbord",
		"website": "https://www.sjohistoriska.se",
		"latitude": 59.332511,
		"longitude": 18.115653
	},
	{
		"name": "Klara eat and meat",
		"address": "Slöjdgatan 7, 111 57 Stockholm",
		"phone": "08-517 266 00",
		"openHours": "mån-tor 08.00-22.00, fre 08.00-23.00, lör 12.00-23.00, sön Stängt",
		"note": "Har skötbord",
		"website": "https://www.scandichotels.se/hotell/sverige/stockholm/scandic-klara/restaurang-bar",
		"latitude": 59.333902,
		"longitude": 18.062542
	},
	{
		"name": "La grand rue",
		"address": "Storgatan 31, 114 55 Stockholm",
		"phone": "072-358 00 91",
		"openHours": "mån-lör 11.00-21.00\\nsön Stängt",
		"note": "Har skötbord",
		"website": "http://lagranderue.se",
		"latitude": 59.335011,
		"longitude": 18.088857
	},
	{
		"name": "Ulriksdals Wärdshus",
		"address": "Ulriksdals Slottspark, 170 79 Solna",
		"phone": "08-85 08 15",
		"openHours": "mån 11.30-16.00, \\ntis-Fre 11.30-22.00, \\nlör 11.30-23.00, \\nsön 12.00-21.00",
		"note": "Har skötbord",
		"website": "http://ulriksdalswardshus.se",
		"latitude": 59.386189,
		"longitude": 18.019344
	},
	{
		"name": "Café koppartältet",
		"address": "Östra koppartältet, 169 70 Solna",
		"phone": "08-27 70 02",
		"openHours": "mån-fre 11.00-14.00",
		"note": "Har skötbord",
		"website": "http://www.koppartalten.se/#vardshuset",
		"latitude": 59.364623,
		"longitude": 18.030502
	},
	{
		"name": "Stallmästaregården",
		"address": "Annerovägen 2, 169 70 Solna",
		"phone": "08-610 13 00",
		"openHours": "se hemsida",
		"note": "Har skötbord",
		"website": "http://www.stallmastaregarden.se/om-oss/hitta-hit",
		"latitude": 59.351952,
		"longitude": 18.044216
	},
	{
		"name": "Bamboo Garden",
		"address": "Åsögatan 120, 116 24 Stockholm",
		"phone": "08-640 00 52",
		"openHours": "mån-fre 11.00–23.00\\nlör 12.00–23.00\\nsön 12.00–21.30",
		"note": "Har skötbord",
		"website": "https://bamboogarden.gastrogate.com",
		"latitude": 59.313079,
		"longitude": 18.075822
	},
	{
		"name": "First Hotel Arlanda Airport",
		"address": "Pionjärvägen 81, 195 61 Arlandastad, Stockholm",
		"phone": "08-480 029 00",
		"openHours": "",
		"note": "Här finns barnstolar i restaurangen, resesängar för dem minsta barnen. Gäster som reser till/från arlanda skjutsas kostnadsfritt i en minibuss som det finns barnstolar och sittkuddar i.",
		"website": "http://firsthotels.se",
		"latitude": 59.610262,
		"longitude": 17.89531
	},
	{
		"name": "Café Finnboda Slip",
		"address": "Finnboda Varvsväg 19A, 131 72 Nacka",
		"phone": "08-533 349 00",
		"openHours": "mån-sön 11.00-16.00",
		"note": "Har skötbord",
		"website": "http://finnbodaslip.se",
		"latitude": 59.315791,
		"longitude": 18.12373
	},
	{
		"name": "Orangeriet/Trattorian",
		"address": "Norr Mälarstrand Kajplats 464, 112 20 Stockholm",
		"phone": "08-684 238 75",
		"openHours": "",
		"note": "Har skötbord",
		"website": "http://trattorian.se",
		"latitude": 59.32776,
		"longitude": 18.03556
	},
	{
		"name": "Eataly",
		"address": "Biblioteksgatan 5, 111 44 Stockholm",
		"phone": "08-400 175 00",
		"openHours": "mån 07:30–17\\ntis  07:30–22\\nons-fre  07:30–00 \\nlör-sön 11–00",
		"note": "Man måste be om en kod till skötrummet.",
		"website": "https://www.eataly.se/",
		"latitude": 59.33452,
		"longitude": 18.072491
	},
	{
		"name": "K-märkt Garnisonen",
		"address": "Karlavägen 100",
		"phone": "08-466 88 90",
		"openHours": "mån-sön 9-16",
		"note": "Har skötbord",
		"website": "http://www.kmarkt.se/kmarkt/k-markt_garnisonen.html",
		"latitude": 59.3361,
		"longitude": 18.0962
	},
	{
		"name": "Haga Forum",
		"address": "Annerovägen 4, 169 70 Solna",
		"phone": "08-33 48 44",
		"openHours": "Måndag-fredag 11:30-14:00 Lördag & Söndag 11:00-15:00",
		"note": "Har skötbord",
		"website": "http://www.hagaforum.se",
		"latitude": 59.35288,
		"longitude": 18.04183
	}
]
